[
 {
   "id": 1,
   "Farmer_name": "Munikrishna-Konanki",
   "Father_name": "Chinnamunuswami",
   "aadhar_no": "XXXXXXXX8816",
   "category": "SC",
   "registered_date": "06/12/2017",
   "registered_season": "rabi",
   "registered_year": 2017,
   "is_land_registered": "Yes",
   "Location": {"type": "Point", "coordinates": [79.2566625, 13.6231406]},
   "Plot": {"type": "Point", "coordinates": [79.2646299, 13.6196814]},
   "distance_house_farm": 0.94,
   "image": "1.JPG",
   "land_type": "Leased",
   "total_extent": 1.5,
   "zbnf_irrigated": 0.5,
   "zbnf_rainfed": 0,
   "nonzbnf_irrigated": 1,
   "nonzbnf_rainfed": 0,
   "survey": "303/48"
 },
 {
   "id": 3,
   "Farmer_name": "Lalitha-Ranrasupalli",
   "Father_name": "Venkataramana",
   "aadhar_no": "XXXXXXXX7784",
   "category": "SC",
   "registered_date": "05/12/2017",
   "registered_season": "rabi",
   "registered_year": 2017,
   "is_land_registered": "Yes",
   "Location": {"type": "Point", "coordinates": [79.2568248, 13.6233806]},
   "Plot": {"type": "Point", "coordinates": [79.2560724, 13.6237274]},
   "distance_house_farm": 0.09,
   "image": "3.JPG",
   "land_type": "Own",
   "total_extent": 2.5,
   "zbnf_irrigated": 0.5,
   "zbnf_rainfed": 0.5,
   "nonzbnf_irrigated": 1,
   "nonzbnf_rainfed": 0.5,
   "survey": "97/2D"
 },
 {
   "id": 4,
   "Farmer_name": "Chandrashekar-Konanki",
   "Father_name": "Changaiah",
   "aadhar_no": "XXXXXXXX1434",
   "category": "SC",
   "registered_date": "04/12/2017",
   "registered_season": "rabi",
   "registered_year": 2017,
   "is_land_registered": "Yes",
   "Location": {"type": "Point", "coordinates": [79.2570255, 13.6230601]},
   "Plot": {"type": "Point", "coordinates": [79.25706954, 13.62089088]},
   "distance_house_farm": 0.24,
   "image": "4.JPG",
   "land_type": "Leased",
   "total_extent": 2,
   "zbnf_irrigated": 0,
   "zbnf_rainfed": 1,
   "nonzbnf_irrigated": 1,
   "nonzbnf_rainfed": 0,
   "survey": "177/1C"
 },
 {
    "id": 4,
    "Farmer_name": "Chandrashekar-Konanki",
    "Father_name": "Changaiah",
    "aadhar_no": "XXXXXXXX1434",
    "category": "SC",
    "registered_date": "04/12/2017",
    "registered_season": "rabi",
    "registered_year": 2017,
    "is_land_registered": "Yes",
    "Location": {"type": "Point", "coordinates": [79.2570255, 13.6230601]},
    "Plot": {"type": "Point", "coordinates": [79.25657817, 13.62141010]},
    "distance_house_farm": 0.19,
    "image": "4.JPG",
    "land_type": "Leased",
    "total_extent": 2,
    "zbnf_irrigated": 0,
    "zbnf_rainfed": 1,
    "nonzbnf_irrigated": 1,
    "nonzbnf_rainfed": 0,
    "survey": "177/1C"
  }
]